[
 {
  "lat": 60.8362,
  "lon": 9.5137,
  "elev": 248.2,
  "horizon": {
   "0": 7.6,
   "45": 21.6,
   "90": 17.1,
   "135": 8.2,
   "180": 20.7,
   "225": 23.8,
   "270": 27.9,
   "315": 20.7
  },
  "navn": "Begna – ovf. Bagn"
 },
 {
  "lat": 60.82063,
  "lon": 9.5599,
  "elev": 218.2,
  "horizon": {
   "0": 11.6,
   "45": 11.7,
   "90": 10.4,
   "135": 8.0,
   "180": 6.6,
   "225": 9.0,
   "270": 6.8,
   "315": 4.4
  },
  "navn": "Begna – Bagn nord"
 },
 {
  "lat": 60.8082,
  "lon": 9.5674,
  "elev": 218.9,
  "horizon": {
   "0": 0.8,
   "45": 10.2,
   "90": 20.3,
   "135": 7.6,
   "180": 5.5,
   "225": 36.5,
   "270": 25.3,
   "315": 14.7
  },
  "navn": "Begna v/Bagn"
 },
 {
  "lat": 60.78901,
  "lon": 9.59394,
  "elev": 214.7,
  "horizon": {
   "0": 16.8,
   "45": 22.3,
   "90": 20.0,
   "135": 2.7,
   "180": 19.4,
   "225": 34.7,
   "270": 28.7,
   "315": 9.9
  },
  "navn": "Begna – Bagn sør"
 },
 {
  "lat": 60.7824,
  "lon": 9.6075,
  "elev": 215.2,
  "horizon": {
   "0": 16.9,
   "45": 12.6,
   "90": 0.0,
   "135": 9.5,
   "180": 20.9,
   "225": 17.0,
   "270": 10.1,
   "315": 2.9
  },
  "navn": "Begna v/Leite bru"
 },
 {
  "lat": 60.77572,
  "lon": 9.64576,
  "elev": 203.3,
  "horizon": {
   "0": 18.2,
   "45": 16.4,
   "90": 11.1,
   "135": 5.7,
   "180": 12.3,
   "225": 11.9,
   "270": 12.9,
   "315": 1.5
  },
  "navn": "Begna – ndf. Leite"
 },
 {
  "lat": 60.7596,
  "lon": 9.6646,
  "elev": 198.4,
  "horizon": {
   "0": 10.9,
   "45": 16.2,
   "90": 2.4,
   "135": 6.3,
   "180": 11.2,
   "225": 16.5,
   "270": 13.9,
   "315": 6.5
  },
  "navn": "Begna v/Fønhus"
 },
 {
  "lat": 60.74979,
  "lon": 9.70017,
  "elev": 194.6,
  "horizon": {
   "0": 12.1,
   "45": 21.0,
   "90": 16.9,
   "135": 7.8,
   "180": 5.4,
   "225": 17.6,
   "270": 16.0,
   "315": 1.4
  },
  "navn": "Begna – ndf. Fønhus"
 },
 {
  "lat": 60.7273,
  "lon": 9.7099,
  "elev": 190.0,
  "horizon": {
   "0": 0.5,
   "45": 15.3,
   "90": 15.5,
   "135": 15.3,
   "180": 0.7,
   "225": 17.7,
   "270": 21.3,
   "315": 17.1
  },
  "navn": "Begna v/Eid"
 }
]