[
 {
  "lat": 60.58814,
  "lon": 8.3544,
  "elev": 484.1,
  "horizon": {
   "0": 9.9,
   "45": 14.7,
   "90": 2.7,
   "135": 1.2,
   "180": 8.6,
   "225": 5.1,
   "270": 7.5,
   "315": 5.7
  },
  "navn": "Sandermohølen"
 },
 {
  "lat": 60.58814,
  "lon": 8.3604,
  "elev": 477.6,
  "horizon": {
   "0": 13.9,
   "45": 16.4,
   "90": 6.6,
   "135": 1.0,
   "180": 7.7,
   "225": 4.2,
   "270": 5.3,
   "315": 5.9
  },
  "navn": "Ankerhushølen"
 },
 {
  "lat": 60.585,
  "lon": 8.3664,
  "elev": 472.4,
  "horizon": {
   "0": 12.2,
   "45": 15.2,
   "90": 3.0,
   "135": 1.7,
   "180": 11.6,
   "225": 8.0,
   "270": 3.4,
   "315": 2.6
  },
  "navn": "Kaparhølen"
 },
 {
  "lat": 60.585,
  "lon": 8.3724,
  "elev": 470.2,
  "horizon": {
   "0": 15.2,
   "45": 15.6,
   "90": 5.7,
   "135": 1.1,
   "180": 10.7,
   "225": 7.4,
   "270": 2.1,
   "315": 4.1
  },
  "navn": "Mobrua"
 },
 {
  "lat": 60.584,
  "lon": 8.3784,
  "elev": 466.1,
  "horizon": {
   "0": 15.8,
   "45": 16.3,
   "90": 7.7,
   "135": 1.2,
   "180": 10.3,
   "225": 9.1,
   "270": 1.1,
   "315": 3.1
  },
  "navn": "Teigehølen"
 },
 {
  "lat": 60.58357,
  "lon": 8.3844,
  "elev": 465.2,
  "horizon": {
   "0": 18.3,
   "45": 18.3,
   "90": 9.2,
   "135": 0.6,
   "180": 9.9,
   "225": 7.6,
   "270": 1.1,
   "315": 4.5
  },
  "navn": "Saga"
 },
 {
  "lat": 60.58,
  "lon": 8.3904,
  "elev": 455.2,
  "horizon": {
   "0": 14.6,
   "45": 13.7,
   "90": 2.4,
   "135": 3.2,
   "180": 14.0,
   "225": 13.4,
   "270": 3.8,
   "315": 2.3
  },
  "navn": "Drivahølen"
 },
 {
  "lat": 60.58,
  "lon": 8.3964,
  "elev": 451.3,
  "horizon": {
   "0": 17.8,
   "45": 17.2,
   "90": 5.1,
   "135": 3.4,
   "180": 10.6,
   "225": 12.0,
   "270": 2.4,
   "315": 4.3
  },
  "navn": "Gapahuk"
 },
 {
  "lat": 60.57743,
  "lon": 8.3992,
  "elev": 447.9,
  "horizon": {
   "0": 13.7,
   "45": 15.5,
   "90": 3.0,
   "135": 5.8,
   "180": 13.8,
   "225": 15.8,
   "270": 4.4,
   "315": 1.3
  },
  "navn": "Sveinhaug"
 },
 {
  "lat": 60.57543,
  "lon": 8.4052,
  "elev": 446.6,
  "horizon": {
   "0": 12.7,
   "45": 2.8,
   "90": 1.4,
   "135": 8.9,
   "180": 15.5,
   "225": 16.4,
   "270": 5.0,
   "315": 1.5
  },
  "navn": "Breieslåtta"
 },
 {
  "lat": 60.576,
  "lon": 8.4144,
  "elev": 446.1,
  "horizon": {
   "0": 15.0,
   "45": 0.4,
   "90": 2.8,
   "135": 9.8,
   "180": 13.9,
   "225": 11.5,
   "270": 2.1,
   "315": 6.4
  },
  "navn": "Øynebrua"
 },
 {
  "lat": 60.57643,
  "lon": 8.4204,
  "elev": 445.7,
  "horizon": {
   "0": 15.6,
   "45": 0.2,
   "90": 4.6,
   "135": 10.5,
   "180": 13.0,
   "225": 8.9,
   "270": 0.7,
   "315": 11.6
  },
  "navn": "Støbakkjin"
 },
 {
  "lat": 60.58,
  "lon": 8.4264,
  "elev": 445.1,
  "horizon": {
   "0": 20.0,
   "45": 2.0,
   "90": 4.4,
   "135": 8.2,
   "180": 8.5,
   "225": 3.9,
   "270": 2.9,
   "315": 19.4
  },
  "navn": "Kanalen"
 }
]