[
 {
  "lat": 61.29843,
  "lon": 11.44889,
  "elev": 245.3,
  "horizon": {
   "0": 0.6,
   "45": 2.9,
   "90": 2.6,
   "135": 0.4,
   "180": 3.5,
   "225": 8.3,
   "270": 8.0,
   "315": 3.4
  },
  "navn": "Fine kastemuligheter"
 },
 {
  "lat": 61.34663,
  "lon": 11.39672,
  "elev": 249.3,
  "horizon": {
   "0": 3.8,
   "45": 14.3,
   "90": 8.9,
   "135": 1.8,
   "180": 2.1,
   "225": 3.7,
   "270": 4.2,
   "315": 0.4
  },
  "navn": "Fiskeplass 1"
 },
 {
  "lat": 61.33234,
  "lon": 11.40575,
  "elev": 246.9,
  "horizon": {
   "0": 2.5,
   "45": 3.2,
   "90": 2.0,
   "135": 0.3,
   "180": 5.2,
   "225": 11.1,
   "270": 14.1,
   "315": 3.4
  },
  "navn": "Fiskeplass 2"
 },
 {
  "lat": 61.33098,
  "lon": 11.40972,
  "elev": 246.8,
  "horizon": {
   "0": 2.8,
   "45": 2.9,
   "90": 2.1,
   "135": 0.3,
   "180": 6.1,
   "225": 8.4,
   "270": 7.8,
   "315": 2.0
  },
  "navn": "Kveldsfiskeplass"
 },
 {
  "lat": 61.32124,
  "lon": 11.43338,
  "elev": 246.2,
  "horizon": {
   "0": 2.2,
   "45": 6.0,
   "90": 5.6,
   "135": 1.5,
   "180": 1.6,
   "225": 4.5,
   "270": 5.5,
   "315": 0.3
  },
  "navn": "Ukjent og mulig fiskeplass"
 },
 {
  "lat": 61.31209,
  "lon": 11.44153,
  "elev": 248.7,
  "horizon": {
   "0": 1.8,
   "45": 5.3,
   "90": 4.3,
   "135": 1.8,
   "180": 1.3,
   "225": 3.7,
   "270": 2.7,
   "315": 1.9
  },
  "navn": "Bakeveplassen"
 },
 {
  "lat": 61.31018,
  "lon": 11.44161,
  "elev": 246.1,
  "horizon": {
   "0": 2.0,
   "45": 3.4,
   "90": 3.6,
   "135": 1.0,
   "180": 1.9,
   "225": 4.6,
   "270": 4.4,
   "315": 1.8
  },
  "navn": "Sivkanten"
 },
 {
  "lat": 61.29023,
  "lon": 11.45503,
  "elev": 244.1,
  "horizon": {
   "0": 1.9,
   "45": 2.2,
   "90": 2.6,
   "135": 1.6,
   "180": 4.3,
   "225": 9.3,
   "270": 8.9,
   "315": 4.4
  },
  "navn": "Mulighetsområdet"
 },
 {
  "lat": 61.26573,
  "lon": 11.47267,
  "elev": 241.6,
  "horizon": {
   "0": 1.0,
   "45": 2.4,
   "90": 3.1,
   "135": 1.1,
   "180": 2.0,
   "225": 5.1,
   "270": 5.0,
   "315": 2.4
  },
  "navn": "Fluefiskeparadis"
 },
 {
  "lat": 61.26062,
  "lon": 11.47672,
  "elev": 241.9,
  "horizon": {
   "0": 0.9,
   "45": 3.1,
   "90": 3.4,
   "135": 0.7,
   "180": 2.8,
   "225": 5.3,
   "270": 5.3,
   "315": 2.4
  },
  "navn": "Fiskeplass eller privat?"
 },
 {
  "lat": 61.2498,
  "lon": 11.48931,
  "elev": 240.0,
  "horizon": {
   "0": 1.9,
   "45": 4.5,
   "90": 5.4,
   "135": 2.7,
   "180": 0.7,
   "225": 2.6,
   "270": 3.7,
   "315": 1.7
  },
  "navn": "Fiskeplass eller privat?"
 },
 {
  "lat": 61.21288,
  "lon": 11.48951,
  "elev": 236.2,
  "horizon": {
   "0": 0.5,
   "45": 1.8,
   "90": 2.1,
   "135": 1.7,
   "180": 0.0,
   "225": 3.3,
   "270": 4.3,
   "315": 2.4
  },
  "navn": "Beste fiskeplass i hele Rena"
 },
 {
  "lat": 61.22084,
  "lon": 11.49531,
  "elev": 240.3,
  "horizon": {
   "0": 0.1,
   "45": 3.2,
   "90": 3.3,
   "135": 2.1,
   "180": 0.6,
   "225": 1.3,
   "270": 3.7,
   "315": 2.5
  },
  "navn": "Belly boat plass"
 },
 {
  "lat": 61.21021,
  "lon": 11.48948,
  "elev": 236.0,
  "horizon": {
   "0": 0.5,
   "45": 1.8,
   "90": 2.4,
   "135": 2.0,
   "180": 0.0,
   "225": 2.8,
   "270": 4.2,
   "315": 2.4
  },
  "navn": "Nydelig fiskeplass ved riktig vannstand"
 },
 {
  "lat": 61.34404,
  "lon": 11.3987,
  "elev": 248.5,
  "horizon": {
   "0": 5.8,
   "45": 11.4,
   "90": 7.8,
   "135": 1.5,
   "180": 1.8,
   "225": 3.7,
   "270": 4.1,
   "315": 0.6
  },
  "navn": "Mulig å kaste, men lite vak å se"
 },
 {
  "lat": 61.31177,
  "lon": 11.44002,
  "elev": 245.8,
  "horizon": {
   "0": 2.1,
   "45": 3.4,
   "90": 3.8,
   "135": 0.9,
   "180": 2.6,
   "225": 4.8,
   "270": 3.6,
   "315": 2.4
  },
  "navn": "Belly opportunity?"
 },
 {
  "lat": 61.30046,
  "lon": 11.44783,
  "elev": 246.2,
  "horizon": {
   "0": 0.7,
   "45": 3.1,
   "90": 2.7,
   "135": 0.7,
   "180": 3.6,
   "225": 7.7,
   "270": 5.3,
   "315": 2.6
  },
  "navn": "Fiskeplass"
 },
 {
  "lat": 61.28293,
  "lon": 11.46445,
  "elev": 242.9,
  "horizon": {
   "0": 1.0,
   "45": 3.4,
   "90": 3.6,
   "135": 1.8,
   "180": 2.2,
   "225": 2.9,
   "270": 4.0,
   "315": 2.4
  },
  "navn": "Muligheter?"
 },
 {
  "lat": 61.20531,
  "lon": 11.48878,
  "elev": 236.3,
  "horizon": {
   "0": 0.4,
   "45": 1.5,
   "90": 1.9,
   "135": 1.8,
   "180": 0.0,
   "225": 7.0,
   "270": 3.6,
   "315": 2.8
  },
  "navn": "Belly over?"
 },
 {
  "lat": 61.24674,
  "lon": 11.49229,
  "elev": 240.6,
  "horizon": {
   "0": 1.6,
   "45": 4.9,
   "90": 5.6,
   "135": 3.1,
   "180": 0.6,
   "225": 2.1,
   "270": 2.9,
   "315": 1.0
  },
  "navn": "Muligheter?"
 },
 {
  "lat": 61.25606,
  "lon": 11.48576,
  "elev": 241.8,
  "horizon": {
   "0": 2.5,
   "45": 3.8,
   "90": 5.2,
   "135": 2.4,
   "180": 0.9,
   "225": 3.2,
   "270": 4.0,
   "315": 0.8
  },
  "navn": "Fiske?"
 }
]